time,seq,secs,nsecs,.header.frame_id,,,,,,,,,.position,P3,P2,P1,P4,P5,P6,.velocity,V3,V2,V1,V4,V5,V6,,.effort,I3,I2,I1,I4,I5,I6
2021/12/15/17:03:31.299076,1147509,1639584211,298788470,,,'elbow_joint','shoulder_lift_joint','shoulder_pan_joint','wrist_1_joint','wrist_2_joint','wrist_3_joint'],,,-4.67E-05,-0.000117497,-6.13E-05,-2.13E-05,5.53E-05,0.000107527,,-7.74E-07,-0.013585418,0,0,0,0,,,-3.716232538,-10.5957737,0.390158236,0.065241501,0.081851959,0.029596344
2021/12/15/17:03:31.308986,1147510,1639584211,308783910,,,'elbow_joint','shoulder_lift_joint','shoulder_pan_joint','wrist_1_joint','wrist_2_joint','wrist_3_joint'],,,-5.90E-05,-0.000150279,-4.94E-05,-4.56E-05,-1.65E-05,0.000143528,,-0.000897771,-0.007209159,0,0,0,0,,,-3.725255966,-10.71896935,0.343047917,0.050666109,0.090391129,0.029141612
2021/12/15/17:03:31.317288,1147511,1639584211,316786673,,,'elbow_joint','shoulder_lift_joint','shoulder_pan_joint','wrist_1_joint','wrist_2_joint','wrist_3_joint'],,,-8.34E-05,-0.000185685,-3.75E-05,-4.56E-05,1.93E-05,0.000107527,,-0.001399079,-0.005958202,0,0,0,0,,,-3.924274921,-11.00995827,0.209181592,0.048506841,0.12892887,0.019978575
2021/12/15/17:03:31.325003,1147512,1639584211,324904256,,,'elbow_joint','shoulder_lift_joint','shoulder_pan_joint','wrist_1_joint','wrist_2_joint','wrist_3_joint'],,,-0.000120309,-0.00022252,-2.56E-05,-5.75E-05,1.93E-05,0.000131607,,-0.004412026,-0.008630774,-0.001278713,0,8.67E-07,0,,,-3.925245047,-11.23677444,0.028536156,-0.030410141,0.214349866,0.041357532
2021/12/15/17:03:31.333288,1147513,1639584211,332890344,,,'elbow_joint','shoulder_lift_joint','shoulder_pan_joint','wrist_1_joint','wrist_2_joint','wrist_3_joint'],,,-0.000121925,-0.000320987,-5.13E-05,-1.18E-05,3.34E-05,0.000107527,,-0.008571555,-0.014916539,-0.004652974,-0.006066962,0.005833907,0,,,-3.987297535,-11.36559963,-0.314394236,-0.066427492,0.253111571,0.024849504
2021/12/15/17:03:31.341031,1147514,1639584211,340809390,,,'elbow_joint','shoulder_lift_joint','shoulder_pan_joint','wrist_1_joint','wrist_2_joint','wrist_3_joint'],,,-0.000194952,-0.000455574,-0.000113312,-3.71E-05,7.30E-05,8.37E-05,,-0.011281623,-0.022888888,-0.011198549,-0.008955728,0.015009663,0,,,-4.289763927,-11.67374134,-0.636405945,-0.166843534,0.280842721,0.021519005
2021/12/15/17:03:31.349303,1147515,1639584211,348791661,,,'elbow_joint','shoulder_lift_joint','shoulder_pan_joint','wrist_1_joint','wrist_2_joint','wrist_3_joint'],,,-0.000269044,-0.000660972,-0.000151459,-0.00013669,0.000159112,8.37E-05,,-0.017200291,-0.026970299,-0.016392091,-0.018991996,0.021153342,0,,,-4.436331749,-11.94110394,-0.872251511,-0.162220865,0.287041038,0.033322092
2021/12/15/17:03:31.359243,1147516,1639584211,358788140,,,'elbow_joint','shoulder_lift_joint','shoulder_pan_joint','wrist_1_joint','wrist_2_joint','wrist_3_joint'],,,-0.0004637,-0.000927762,-0.000321213,-0.000317411,0.000401084,0.000107527,,-0.023776846,-0.036216792,-0.022549862,-0.02054432,0.027180281,0,,,-4.646737099,-12.25359058,-1.248549938,-0.208672851,0.308372766,0.022131309
2021/12/15/17:03:31.366949,1147517,1639584211,366787028,,,'elbow_joint','shoulder_lift_joint','shoulder_pan_joint','wrist_1_joint','wrist_2_joint','wrist_3_joint'],,,-0.000657572,-0.001218395,-0.000468556,-0.000439839,0.000619707,0.000119448,,-0.029917579,-0.044352721,-0.030401882,-0.027510738,0.03475393,0,,,-4.888803482,-12.65924454,-1.57493031,-0.242283672,0.336479664,0.021181993
2021/12/15/17:03:31.375248,1147518,1639584211,374790262,,,'elbow_joint','shoulder_lift_joint','shoulder_pan_joint','wrist_1_joint','wrist_2_joint','wrist_3_joint'],,,-0.000912449,-0.001617269,-0.000711266,-0.000646905,0.000886197,9.56E-05,,-0.037050042,-0.05377169,-0.039659571,-0.035422526,0.042285174,0,,,-5.063308716,-12.97695637,-1.856818676,-0.291966498,0.369171351,0.026567798
2021/12/15/17:03:31.382960,1147519,1639584211,382786666,,,'elbow_joint','shoulder_lift_joint','shoulder_pan_joint','wrist_1_joint','wrist_2_joint','wrist_3_joint'],,,-0.001251585,-0.002065019,-0.001038853,-0.000938849,0.00128622,0.000119448,,-0.046246104,-0.065402701,-0.05024806,-0.045721818,0.053532854,0,,,-5.155846596,-13.40083981,-2.097945213,-0.319156587,0.401796818,0.015826888
2021/12/15/17:03:31.391240,1147520,1639584211,390784820,,,'elbow_joint','shoulder_lift_joint','shoulder_pan_joint','wrist_1_joint','wrist_2_joint','wrist_3_joint'],,,-0.001651106,-0.002657608,-0.001462762,-0.001290874,0.001758259,0.000107527,,-0.056447223,-0.080559351,-0.062572539,-0.056304526,0.066325858,0,,,-5.345918655,-13.49271584,-2.25275588,-0.353074968,0.423322648,0.013698544
2021/12/15/17:03:31.398965,1147521,1639584211,398785768,,,'elbow_joint','shoulder_lift_joint','shoulder_pan_joint','wrist_1_joint','wrist_2_joint','wrist_3_joint'],,,-0.00214692,-0.003369765,-0.001970116,-0.001811342,0.002362985,9.56E-05,,-0.066782773,-0.094836637,-0.073124498,-0.067368075,0.080460086,0,,,-5.504549026,-13.71650505,-2.694084406,-0.37769556,0.424847573,0.002627812
2021/12/15/17:03:31.408914,1147522,1639584211,408787208,,,'elbow_joint','shoulder_lift_joint','shoulder_pan_joint','wrist_1_joint','wrist_2_joint','wrist_3_joint'],,,-0.002884539,-0.004443602,-0.002804581,-0.002513484,0.003269165,0.000143528,,-0.0820795,-0.115783237,-0.092442125,-0.083243892,0.099391051,0,,,-5.682651997,-14.04524899,-2.795991182,-0.381840855,0.420743108,0.001940195
2021/12/15/17:03:31.417176,1147523,1639584211,416787049,,,'elbow_joint','shoulder_lift_joint','shoulder_pan_joint','wrist_1_joint','wrist_2_joint','wrist_3_joint'],,,-0.003560586,-0.005433397,-0.003577058,-0.003237681,0.004124921,0.000131607,,-0.093782209,-0.135447726,-0.107318446,-0.094447106,0.112309821,0,,,-5.798460484,-13.92729378,-2.867995501,-0.400610387,0.445723474,0.004959054
2021/12/15/17:03:31.425426,1147524,1639584211,424897124,,,'elbow_joint','shoulder_lift_joint','shoulder_pan_joint','wrist_1_joint','wrist_2_joint','wrist_3_joint'],,,-0.004429597,-0.006590084,-0.004493539,-0.003987507,0.00506557,8.37E-05,,-0.106835932,-0.152126834,-0.121715695,-0.108736992,0.127322853,0,,,-5.814955711,-14.0333271,-3.097581148,-0.407282829,0.435838342,0.003043085
2021/12/15/17:03:31.433163,1147525,1639584211,432878421,,,'elbow_joint','shoulder_lift_joint','shoulder_pan_joint','wrist_1_joint','wrist_2_joint','wrist_3_joint'],,,-0.00536965,-0.007879214,-0.005566899,-0.004951553,0.006138363,0.000119448,,-0.119196504,-0.170954943,-0.139431551,-0.120140567,0.142132625,0,,,-5.947480202,-14.24066257,-3.10671258,-0.453083247,0.477071702,0.015559748
2021/12/15/17:03:31.440876,1147526,1639584211,440790825,,,'elbow_joint','shoulder_lift_joint','shoulder_pan_joint','wrist_1_joint','wrist_2_joint','wrist_3_joint'],,,-0.006371201,-0.009311871,-0.006723706,-0.005941109,0.007415575,0.000107527,,-0.135102257,-0.191263631,-0.156696022,-0.133399844,0.159164011,0,,,-5.892356396,-14.13872147,-3.15530467,-0.466923356,0.452206314,0.004308946
2021/12/15/17:03:31.449153,1147527,1639584211,448791051,,,'elbow_joint','shoulder_lift_joint','shoulder_pan_joint','wrist_1_joint','wrist_2_joint','wrist_3_joint'],,,-0.007528363,-0.011007504,-0.008096043,-0.007061676,0.008764284,0.000119448,,-0.14872928,-0.208176523,-0.172197968,-0.144368678,0.174871311,0,,,-5.748255253,-14.23341846,-3.167348623,-0.472446501,0.4375301,0.014975339
2021/12/15/17:03:31.459100,1147528,1639584211,458789968,,,'elbow_joint','shoulder_lift_joint','shoulder_pan_joint','wrist_1_joint','wrist_2_joint','wrist_3_joint'],,,-0.009129417,-0.013196067,-0.009926144,-0.008689837,0.010616175,0.000131607,,-0.16430828,-0.231364906,-0.193196133,-0.163866907,0.191724449,0,,,-5.844062805,-14.34627247,-3.244404316,-0.423667639,0.440461755,0.004930321
2021/12/15/17:03:31.467385,1147529,1639584211,466786120,,,'elbow_joint','shoulder_lift_joint','shoulder_pan_joint','wrist_1_joint','wrist_2_joint','wrist_3_joint'],,,-0.010598985,-0.015204863,-0.011562649,-0.010001616,0.012216554,0.000107527,,-0.179315493,-0.253142029,-0.210461378,-0.174359158,0.207429975,0,,,-5.815442562,-13.99528122,-2.990586042,-0.467576951,0.457988173,-0.008431688
2021/12/15/17:03:31.475072,1147530,1639584211,474793692,,,'elbow_joint','shoulder_lift_joint','shoulder_pan_joint','wrist_1_joint','wrist_2_joint','wrist_3_joint'],,,-0.012092316,-0.017307953,-0.013354127,-0.011459188,0.013984512,9.56E-05,,-0.195553333,-0.268961996,-0.226089105,-0.187873498,0.221644908,0,,,-5.643703461,-13.84139729,-2.942606926,-0.443161309,0.45728448,-0.009120256
2021/12/15/17:03:31.483453,1147531,1639584211,482798222,,,'elbow_joint','shoulder_lift_joint','shoulder_pan_joint','wrist_1_joint','wrist_2_joint','wrist_3_joint'],,,-0.013716468,-0.019579009,-0.015289609,-0.013034896,0.015836217,9.56E-05,,-0.206466317,-0.288301289,-0.241203874,-0.196370527,0.237376451,0,,,-5.654030323,-14.04383564,-2.875766039,-0.469140857,0.441953182,-0.014022812
2021/12/15/17:03:31.491166,1147532,1639584211,490786419,,,'elbow_joint','shoulder_lift_joint','shoulder_pan_joint','wrist_1_joint','wrist_2_joint','wrist_3_joint'],,,-0.015436055,-0.021944241,-0.017309491,-0.014684157,0.017855158,0.000119448,,-0.218684673,-0.303447634,-0.256259352,-0.208951175,0.251100421,0,,,-5.690686703,-14.11082458,-2.807605267,-0.472644985,0.446925372,-0.000241943
2021/12/15/17:03:31.498916,1147533,1639584211,498837964,,,'elbow_joint','shoulder_lift_joint','shoulder_pan_joint','wrist_1_joint','wrist_2_joint','wrist_3_joint'],,,-0.017264131,-0.02450426,-0.01942474,-0.016465263,0.019922949,0.000143528,,-0.231810123,-0.324727148,-0.272143036,-0.22280997,0.265955657,0,,,-5.545619965,-13.76836205,-2.546835899,-0.403155595,0.412200928,-0.002974153
2021/12/15/17:03:31.508939,1147534,1639584211,508796635,,,'elbow_joint','shoulder_lift_joint','shoulder_pan_joint','wrist_1_joint','wrist_2_joint','wrist_3_joint'],,,-0.019680927,-0.027900891,-0.022271935,-0.018752889,0.022650434,0.000107527,,-0.245071635,-0.342246532,-0.288352758,-0.237626448,0.281918824,0,,,-5.474353313,-13.89808655,-2.264009714,-0.368237406,0.460966349,-0.027256593
2021/12/15/17:03:31.517188,1147535,1639584211,516791898,,,'elbow_joint','shoulder_lift_joint','shoulder_pan_joint','wrist_1_joint','wrist_2_joint','wrist_3_joint'],,,-0.021640686,-0.030672745,-0.024612252,-0.020649747,0.024943495,8.37E-05,,-0.256254822,-0.355519056,-0.297747672,-0.240841329,0.292533755,0,,,-5.618612289,-13.94762993,-2.081636429,-0.445109218,0.483630747,-0.027267292
2021/12/15/17:03:31.525680,1147536,1639584211,525003735,,,'elbow_joint','shoulder_lift_joint','shoulder_pan_joint','wrist_1_joint','wrist_2_joint','wrist_3_joint'],,,-0.02379187,-0.033613877,-0.027061764,-0.022673563,0.02738337,0.000107527,,-0.266506076,-0.370778918,-0.308804452,-0.258735448,0.308738738,0,,,-5.550392628,-13.93562984,-2.078551769,-0.35123682,0.454123497,-0.010125086
2021/12/15/17:03:31.533364,1147537,1639584211,532892423,,,'elbow_joint','shoulder_lift_joint','shoulder_pan_joint','wrist_1_joint','wrist_2_joint','wrist_3_joint'],,,-0.025957221,-0.036650257,-0.0295952,-0.024800019,0.029930726,0.000131607,,-0.279744893,-0.386536181,-0.319063276,-0.265821636,0.32221967,0,,,-5.453185081,-13.92457867,-2.325467348,-0.429781318,0.462694108,-0.018672064
2021/12/15/17:03:31.541177,1147538,1639584211,540802564,,,'elbow_joint','shoulder_lift_joint','shoulder_pan_joint','wrist_1_joint','wrist_2_joint','wrist_3_joint'],,,-0.028167235,-0.039770083,-0.032199685,-0.026963786,0.032547738,8.37E-05,,-0.287330896,-0.401752919,-0.328138709,-0.273735285,0.332556099,0,,,-5.22687149,-13.47762489,-2.240086079,-0.392814189,0.447222173,-0.024664998
2021/12/15/17:03:31.549397,1147539,1639584211,548935593,,,'elbow_joint','shoulder_lift_joint','shoulder_pan_joint','wrist_1_joint','wrist_2_joint','wrist_3_joint'],,,-0.030507531,-0.043105916,-0.034900014,-0.029211835,0.035296336,0.000107527,,-0.296386331,-0.41363734,-0.337394416,-0.283590734,0.342769504,0,,,-5.460730553,-13.31944275,-2.014681339,-0.412619293,0.44844535,-0.019888744
2021/12/15/17:03:31.559541,1147540,1639584211,558932167,,,'elbow_joint','shoulder_lift_joint','shoulder_pan_joint','wrist_1_joint','wrist_2_joint','wrist_3_joint'],,,-0.033569083,-0.047355489,-0.038285557,-0.03206201,0.038812321,0.000119448,,-0.305913448,-0.434171557,-0.350011766,-0.296478182,0.353178412,0,,,-5.192450523,-12.9355154,-1.928464055,-0.419719338,0.449229538,-0.032826662
2021/12/15/17:03:31.567264,1147541,1639584211,566791172,,,'elbow_joint','shoulder_lift_joint','shoulder_pan_joint','wrist_1_joint','wrist_2_joint','wrist_3_joint'],,,-0.036052663,-0.050858693,-0.041151826,-0.034390525,0.041669551,9.56E-05,,-0.312667608,-0.440078497,-0.355566561,-0.29635036,0.364197373,0,,,-5.396963596,-13.3367691,-2.078038931,-0.496884584,0.438343078,-0.04034102
2021/12/15/17:03:31.575046,1147542,1639584211,574826044,,,'elbow_joint','shoulder_lift_joint','shoulder_pan_joint','wrist_1_joint','wrist_2_joint','wrist_3_joint'],,,-0.038620122,-0.054399685,-0.044042889,-0.03682013,0.044598535,9.56E-05,,-0.318835229,-0.448414505,-0.364282519,-0.309329748,0.372449815,0,,,-5.300715446,-13.61946297,-1.932909966,-0.437577128,0.417766243,-0.033109143
2021/12/15/17:03:31.583415,1147543,1639584211,582795269,,,'elbow_joint','shoulder_lift_joint','shoulder_pan_joint','wrist_1_joint','wrist_2_joint','wrist_3_joint'],,,-0.041201804,-0.05808516,-0.046993081,-0.039320545,0.047585774,0.000107527,,-0.326458514,-0.463570684,-0.368862033,-0.317554027,0.381141126,0,,,-5.289812088,-13.13607693,-2.114273787,-0.480247021,0.426041752,-0.040253222
2021/12/15/17:03:31.591233,1147544,1639584211,590821042,,,'elbow_joint','shoulder_lift_joint','shoulder_pan_joint','wrist_1_joint','wrist_2_joint','wrist_3_joint'],,,-0.043888751,-0.061851339,-0.050043408,-0.041901307,0.050644953,7.15E-05,,-0.330481589,-0.468894869,-0.378244698,-0.319343328,0.386846453,0,,,-5.251475334,-13.17301655,-1.858179927,-0.52128011,0.452604204,-0.040064186
2021/12/15/17:03:31.598969,1147545,1639584211,598889866,,,'elbow_joint','shoulder_lift_joint','shoulder_pan_joint','wrist_1_joint','wrist_2_joint','wrist_3_joint'],,,-0.046541203,-0.065654592,-0.053103272,-0.044557409,0.05372835,7.15E-05,,-0.337479949,-0.475175619,-0.385044485,-0.326992512,0.393579096,0,,,-5.16446209,-13.32431507,-1.840920925,-0.47733441,0.452380419,-0.047696881
2021/12/15/17:03:31.608947,1147546,1639584211,608863689,,,'elbow_joint','shoulder_lift_joint','shoulder_pan_joint','wrist_1_joint','wrist_2_joint','wrist_3_joint'],,,-0.049984489,-0.070552186,-0.057047669,-0.047846751,0.057759151,9.56E-05,,-0.344539165,-0.490803719,-0.391825318,-0.332105815,0.400396138,0,,,-4.972690582,-12.5493412,-1.561022878,-0.466879547,0.482963413,-0.049671486
2021/12/15/17:03:31.617409,1147547,1639584211,616853422,,,'elbow_joint','shoulder_lift_joint','shoulder_pan_joint','wrist_1_joint','wrist_2_joint','wrist_3_joint'],,,-0.052695759,-0.074427442,-0.060177628,-0.050527052,0.060961962,8.37E-05,,-0.348194152,-0.498240143,-0.396621883,-0.337586135,0.407020003,0,,,-5.008811474,-12.40002823,-1.701185107,-0.459651828,0.459024847,-0.057760186
2021/12/15/17:03:31.625219,1147548,1639584211,624884569,,,'elbow_joint','shoulder_lift_joint','shoulder_pan_joint','wrist_1_joint','wrist_2_joint','wrist_3_joint'],,,-0.055551343,-0.078457193,-0.063402001,-0.053219871,0.064256638,8.36E-05,,-0.3533144,-0.505141675,-0.400517523,-0.342713922,0.408955723,-0.000164204,,,-4.874577045,-12.26358032,-1.644437432,-0.452798188,0.479200929,-0.05099158
2021/12/15/17:03:31.633045,1147549,1639584211,632910363,,,'elbow_joint','shoulder_lift_joint','shoulder_pan_joint','wrist_1_joint','wrist_2_joint','wrist_3_joint'],,,-0.058309812,-0.082547144,-0.0665682,-0.055981593,0.067604616,0.000119384,,-0.355795354,-0.509572625,-0.407170177,-0.340176284,0.415313959,-0.000173263,,,-4.964783192,-12.07394028,-1.432760715,-0.523064077,0.440369248,-0.046711229
2021/12/15/17:03:31.641397,1147550,1639584211,640852501,,,'elbow_joint','shoulder_lift_joint','shoulder_pan_joint','wrist_1_joint','wrist_2_joint','wrist_3_joint'],,,-0.061175376,-0.086623268,-0.06984121,-0.058745102,0.07099741,9.55E-05,,-0.359598458,-0.509870112,-0.408541679,-0.344175726,0.417621225,-0.000179118,,,-4.77033186,-12.09242916,-1.420479178,-0.491571724,0.437612951,-0.063550234
2021/12/15/17:03:31.649143,1147551,1639584211,648793308,,,'elbow_joint','shoulder_lift_joint','shoulder_pan_joint','wrist_1_joint','wrist_2_joint','wrist_3_joint'],,,-0.064077102,-0.090725021,-0.073149983,-0.061495737,0.074354105,9.55E-05,,-0.359646589,-0.512998402,-0.411780626,-0.346435398,0.41924724,-0.000177907,,,-5.085958481,-12.01342487,-1.460881352,-0.464204967,0.440064251,-0.042601742
2021/12/15/17:03:31.659176,1147552,1639584211,658795932,,,'elbow_joint','shoulder_lift_joint','shoulder_pan_joint','wrist_1_joint','wrist_2_joint','wrist_3_joint'],,,-0.067711942,-0.095855431,-0.077308957,-0.064931707,0.078562722,9.55E-05,,-0.362971008,-0.511261344,-0.414087951,-0.349596709,0.421262383,-0.000239596,,,-4.832392693,-12.17429256,-1.330041647,-0.434261471,0.429982245,-0.048014581
2021/12/15/17:03:31.666958,1147553,1639584211,666791678,,,'elbow_joint','shoulder_lift_joint','shoulder_pan_joint','wrist_1_joint','wrist_2_joint','wrist_3_joint'],,,-0.070663117,-0.099980549,-0.080678288,-0.067683892,0.08184737,0.000119374,,-0.364864796,-0.514794469,-0.416743517,-0.354216725,0.423594296,-0.000198574,,,-4.675816536,-11.86917305,-1.135131121,-0.452799559,0.40702036,-0.044206277
2021/12/15/17:03:31.675261,1147554,1639584211,674792480,,,'elbow_joint','shoulder_lift_joint','shoulder_pan_joint','wrist_1_joint','wrist_2_joint','wrist_3_joint'],,,-0.073635995,-0.104104952,-0.084033314,-0.070457534,0.085154921,7.15E-05,,-0.364643484,-0.519443214,-0.417802513,-0.352786303,0.422469974,-0.000193741,,,-4.822814465,-11.70064926,-1.146547079,-0.537390172,0.468776226,-0.041400254
2021/12/15/17:03:31.683092,1147555,1639584211,682834907,,,'elbow_joint','shoulder_lift_joint','shoulder_pan_joint','wrist_1_joint','wrist_2_joint','wrist_3_joint'],,,-0.076573327,-0.108292417,-0.087330166,-0.073314742,0.08848916,7.15E-05,,-0.365200311,-0.522413194,-0.421179324,-0.352129638,0.427044958,-0.000176108,,,-4.791501522,-11.65208721,-1.022854328,-0.531476021,0.463525593,-0.047755472
2021/12/15/17:03:31.691452,1147556,1639584211,690887613,,,'elbow_joint','shoulder_lift_joint','shoulder_pan_joint','wrist_1_joint','wrist_2_joint','wrist_3_joint'],,,-0.079522677,-0.112534241,-0.090698544,-0.076125459,0.091881879,2.35E-05,,-0.366018772,-0.523688972,-0.421774864,-0.350782454,0.427666306,-0.000155784,,,-4.80878973,-11.50934982,-0.99992609,-0.547793746,0.508226573,-0.040061444
2021/12/15/17:03:31.699177,1147557,1639584211,698804294,,,'elbow_joint','shoulder_lift_joint','shoulder_pan_joint','wrist_1_joint','wrist_2_joint','wrist_3_joint'],,,-0.082462646,-0.116690831,-0.094088856,-0.078961806,0.095322423,7.15E-05,,-0.368603319,-0.518730164,-0.420761436,-0.356841952,0.43058309,-0.000139666,,,-4.683752537,-11.87394047,-1.095915794,-0.491614252,0.462253749,-0.034562156
2021/12/15/17:03:31.709144,1147558,1639584211,708795216,,,'elbow_joint','shoulder_lift_joint','shoulder_pan_joint','wrist_1_joint','wrist_2_joint','wrist_3_joint'],,,-0.08608292,-0.12191637,-0.098259751,-0.082492308,0.099661678,9.56E-05,,-0.369677693,-0.521964729,-0.422096223,-0.356322408,0.431670278,-0.000144282,,,-4.743685722,-11.77702522,-1.077971816,-0.485633999,0.461828053,-0.03853184
2021/12/15/17:03:31.717552,1147559,1639584211,716919751,,,'elbow_joint','shoulder_lift_joint','shoulder_pan_joint','wrist_1_joint','wrist_2_joint','wrist_3_joint'],,,-0.089069188,-0.126074747,-0.101725403,-0.08530374,0.103174247,0.000119399,,-0.372210056,-0.523093402,-0.425985098,-0.360445797,0.434777439,-0.000132175,,,-4.660291672,-11.88129139,-0.960214794,-0.467235804,0.449079007,-0.039548501
2021/12/15/17:03:31.725314,1147560,1639584211,724888339,,,'elbow_joint','shoulder_lift_joint','shoulder_pan_joint','wrist_1_joint','wrist_2_joint','wrist_3_joint'],,,-0.092054456,-0.130257801,-0.105115239,-0.088209824,0.106601566,7.15E-05,,-0.371392757,-0.523603261,-0.4247109,-0.359665602,0.433384359,-0.000121941,,,-5.005146503,-12.18740177,-1.19445765,-0.521821439,0.519383073,-0.031282201
2021/12/15/17:03:31.733131,1147561,1639584211,732872026,,,'elbow_joint','shoulder_lift_joint','shoulder_pan_joint','wrist_1_joint','wrist_2_joint','wrist_3_joint'],,,-0.095018893,-0.134418682,-0.108555142,-0.091069774,0.110092506,0.000131565,,-0.37549907,-0.531752348,-0.427893579,-0.364075243,0.43940863,-0.000113179,,,-4.84009552,-11.93840027,-1.242785811,-0.548188567,0.469677299,-0.031502768
2021/12/15/17:03:31.741432,1147562,1639584211,740902477,,,'elbow_joint','shoulder_lift_joint','shoulder_pan_joint','wrist_1_joint','wrist_2_joint','wrist_3_joint'],,,-0.098075978,-0.13867207,-0.111972634,-0.093915538,0.113555327,5.96E-05,,-0.374158829,-0.530350029,-0.428398132,-0.36338833,0.43785122,-0.000105591,,,-5.123623371,-12.2650919,-1.394266844,-0.579223096,0.496256232,-0.020753503
2021/12/15/17:03:31.749170,1147563,1639584211,748792181,,,'elbow_joint','shoulder_lift_joint','shoulder_pan_joint','wrist_1_joint','wrist_2_joint','wrist_3_joint'],,,-0.10111206,-0.142903404,-0.115378205,-0.096762018,0.116996162,7.15E-05,,-0.379485607,-0.534817994,-0.430977672,-0.361359239,0.440174222,-9.90E-05,,,-4.988527298,-12.35396385,-1.512957573,-0.648612678,0.55166924,-0.024574339
2021/12/15/17:03:31.759212,1147564,1639584211,758791001,,,'elbow_joint','shoulder_lift_joint','shoulder_pan_joint','wrist_1_joint','wrist_2_joint','wrist_3_joint'],,,-0.104963727,-0.148261265,-0.119681183,-0.100367026,0.121331744,0.000107493,,-0.38141495,-0.539249003,-0.4382976,-0.368811429,0.440547138,-9.18E-05,,,-5.193999767,-12.65051365,-1.585699081,-0.71538341,0.663745463,-0.032272823
2021/12/15/17:03:31.766998,1147565,1639584211,766792295,,,'elbow_joint','shoulder_lift_joint','shoulder_pan_joint','wrist_1_joint','wrist_2_joint','wrist_3_joint'],,,-0.10798762,-0.152638511,-0.123228852,-0.103285984,0.124878123,7.15E-05,,-0.385634989,-0.55093044,-0.443438768,-0.372882128,0.452323914,-8.67E-05,,,-5.221179008,-12.75260639,-1.649200439,-0.721533298,0.623489201,-0.029429123
2021/12/15/17:03:31.775273,1147566,1639584211,774825455,,,'elbow_joint','shoulder_lift_joint','shoulder_pan_joint','wrist_1_joint','wrist_2_joint','wrist_3_joint'],,,-0.111059591,-0.157062129,-0.126778428,-0.106460051,0.128544241,9.56E-05,,-0.391477525,-0.555348217,-0.451949537,-0.381458849,0.457437336,-8.22E-05,,,-5.483991623,-13.15398026,-1.723302007,-0.740768373,0.685818493,-0.031422913
2021/12/15/17:03:31.783147,1147567,1639584211,782786989,,,'elbow_joint','shoulder_lift_joint','shoulder_pan_joint','wrist_1_joint','wrist_2_joint','wrist_3_joint'],,,-0.114205539,-0.161512927,-0.130438153,-0.109500842,0.132309452,8.37E-05,,-0.401470333,-0.570574462,-0.463470012,-0.38992703,0.472465634,-7.81E-05,,,-5.640812874,-13.59999275,-1.985307097,-0.736957133,0.660431445,-0.02722317
2021/12/15/17:03:31.791528,1147568,1639584211,790921571,,,'elbow_joint','shoulder_lift_joint','shoulder_pan_joint','wrist_1_joint','wrist_2_joint','wrist_3_joint'],,,-0.117401481,-0.166094736,-0.134142701,-0.112622575,0.136048645,0.0001435,,-0.416161567,-0.587031364,-0.473859847,-0.400309503,0.481246501,-7.44E-05,,,-5.734280109,-13.84797478,-2.288776636,-0.770498991,0.752323866,-0.021734044
2021/12/15/17:03:31.799268,1147569,1639584211,798794770,,,'elbow_joint','shoulder_lift_joint','shoulder_pan_joint','wrist_1_joint','wrist_2_joint','wrist_3_joint'],,,-0.120739162,-0.170790748,-0.137934033,-0.115866141,0.139884472,0.000107501,,-0.428278923,-0.610431314,-0.487226307,-0.414424628,0.49590373,-7.11E-05,,,-6.307614803,-14.67917538,-2.812894344,-0.80210799,0.858786404,-0.013400644
2021/12/15/17:03:31.809251,1147570,1639584211,808791223,,,'elbow_joint','shoulder_lift_joint','shoulder_pan_joint','wrist_1_joint','wrist_2_joint','wrist_3_joint'],,,-0.125052392,-0.176920967,-0.142830674,-0.119922237,0.144942105,0.000119448,,-0.44702822,-0.633892477,-0.507730901,-0.428658426,0.52134186,-9.80E-09,,,-6.338349342,-15.48244572,-3.244517326,-0.910934389,0.81941396,-0.027419433
2021/12/15/17:03:31.816997,1147571,1639584211,816877237,,,'elbow_joint','shoulder_lift_joint','shoulder_pan_joint','wrist_1_joint','wrist_2_joint','wrist_3_joint'],,,-0.128632441,-0.182019309,-0.14692289,-0.123453216,0.149147809,0.000107527,,-0.464097202,-0.657069921,-0.529210627,-0.447357267,0.536899626,-1.78E-13,,,-6.76671505,-16.20723152,-3.391387939,-0.928173661,0.915722966,-0.025669441
2021/12/15/17:03:31.825466,1147572,1639584211,824916222,,,'elbow_joint','shoulder_lift_joint','shoulder_pan_joint','wrist_1_joint','wrist_2_joint','wrist_3_joint'],,,-0.132440284,-0.187260227,-0.151231591,-0.126959757,0.153500542,8.37E-05,,-0.481195271,-0.673557937,-0.550274789,-0.464273572,0.558984458,-3.24E-18,,,-7.13709116,-17.45874214,-3.902484655,-0.991979718,1.003895998,-0.028488427
2021/12/15/17:03:31.833203,1147573,1639584211,832901334,,,'elbow_joint','shoulder_lift_joint','shoulder_pan_joint','wrist_1_joint','wrist_2_joint','wrist_3_joint'],,,-0.136382043,-0.192758994,-0.15573198,-0.130680875,0.157997474,0.000119448,,-0.500705957,-0.702735007,-0.571348548,-0.480447292,0.582912683,-5.89E-23,,,-7.542043686,-17.69608688,-4.042291164,-1.093339443,1.044319749,-0.038933799
2021/12/15/17:03:31.841006,1147574,1639584211,840865140,,,'elbow_joint','shoulder_lift_joint','shoulder_pan_joint','wrist_1_joint','wrist_2_joint','wrist_3_joint'],,,-0.140513599,-0.19844933,-0.160413567,-0.134633259,0.162834629,9.56E-05,,-0.519710779,-0.737845063,-0.595145106,-0.50467968,0.601404488,-1.07E-27,,,-7.542897224,-17.5136528,-4.170227528,-1.130797386,1.068522811,-0.037776604
2021/12/15/17:03:31.849387,1147575,1639584211,848796014,,,'elbow_joint','shoulder_lift_joint','shoulder_pan_joint','wrist_1_joint','wrist_2_joint','wrist_3_joint'],,,-0.144803569,-0.204472021,-0.165224377,-0.138823585,0.167821959,8.37E-05,,-0.540423155,-0.763934135,-0.613947034,-0.521587968,0.628216445,-1.94E-32,,,-7.279791832,-17.58818626,-4.230598927,-1.165033579,1.015672922,-0.038005188
2021/12/15/17:03:31.859356,1147576,1639584211,858792847,,,'elbow_joint','shoulder_lift_joint','shoulder_pan_joint','wrist_1_joint','wrist_2_joint','wrist_3_joint'],,,-0.150329918,-0.212377028,-0.171568696,-0.144251303,0.174383044,0.000131607,,-0.563386619,-0.794027746,-0.638235033,-0.547665417,0.65450418,-2.31E-38,,,-7.091906071,-17.31582832,-4.222365856,-0.97011745,0.935101509,-0.048251361
2021/12/15/17:03:31.867088,1147577,1639584211,866796642,,,'elbow_joint','shoulder_lift_joint','shoulder_pan_joint','wrist_1_joint','wrist_2_joint','wrist_3_joint'],,,-0.154956937,-0.218962745,-0.176850621,-0.148702816,0.179614916,0.000107527,,-0.580192626,-0.819613993,-0.658754647,-0.559412122,0.670333862,-4.19E-43,,,-6.870270729,-16.72780228,-3.600846291,-0.967749,0.907386601,-0.036238782
2021/12/15/17:03:31.875351,1147578,1639584211,874862079,,,'elbow_joint','shoulder_lift_joint','shoulder_pan_joint','wrist_1_joint','wrist_2_joint','wrist_3_joint'],,,-0.159698099,-0.225763635,-0.182283227,-0.153190331,0.185045913,0.000107527,,-0.595498502,-0.845091462,-0.681307018,-0.570022821,0.684821546,0,,,-6.508963585,-15.90652275,-3.156662464,-0.996317506,0.934021354,-0.043666728
2021/12/15/17:03:31.883156,1147579,1639584211,882800250,,,'elbow_joint','shoulder_lift_joint','shoulder_pan_joint','wrist_1_joint','wrist_2_joint','wrist_3_joint'],,,-0.164570361,-0.232661442,-0.187866513,-0.157810048,0.190707386,5.96E-05,,-0.604800701,-0.863284588,-0.692038834,-0.584707201,0.696560085,0,,,-6.386367798,-15.2763176,-2.991441488,-0.900897861,0.921278179,-0.036566973
2021/12/15/17:03:31.890935,1147580,1639584211,890794867,,,'elbow_joint','shoulder_lift_joint','shoulder_pan_joint','wrist_1_joint','wrist_2_joint','wrist_3_joint'],,,-0.169576019,-0.239735083,-0.193497483,-0.162535028,0.196516484,9.56E-05,,-0.61738658,-0.878000438,-0.702905476,-0.590034664,0.709215045,0,,,-5.918172836,-14.03588963,-2.267771721,-0.935776174,0.771295786,-0.037085399
2021/12/15/17:03:31.899242,1147581,1639584211,898791436,,,'elbow_joint','shoulder_lift_joint','shoulder_pan_joint','wrist_1_joint','wrist_2_joint','wrist_3_joint'],,,-0.17458868,-0.246857957,-0.199261967,-0.167365627,0.202335224,8.37E-05,,-0.620978057,-0.882077217,-0.71239084,-0.592405498,0.714268804,0,,,-5.523906708,-13.27755451,-1.42487824,-0.905326784,0.725894392,-0.033682734
2021/12/15/17:03:31.909329,1147582,1639584211,908787248,,,'elbow_joint','shoulder_lift_joint','shoulder_pan_joint','wrist_1_joint','wrist_2_joint','wrist_3_joint'],,,-0.180817634,-0.255937056,-0.206565205,-0.173515276,0.209611371,9.56E-05,,-0.624993265,-0.886517882,-0.714307368,-0.594032347,0.719204128,0,,,-5.046203613,-12.16393375,-0.89004004,-0.792568922,0.644360125,-0.033141047
2021/12/15/17:03:31.917083,1147583,1639584211,916835461,,,'elbow_joint','shoulder_lift_joint','shoulder_pan_joint','wrist_1_joint','wrist_2_joint','wrist_3_joint'],,,-0.185876444,-0.263104991,-0.212361161,-0.178375797,0.215330333,9.56E-05,,-0.62620455,-0.889512062,-0.71662581,-0.596403301,0.71594888,0,,,-4.49195528,-10.96837234,-0.342254817,-0.692329526,0.599105179,-0.039371938
2021/12/15/17:03:31.925447,1147584,1639584211,924870783,,,'elbow_joint','shoulder_lift_joint','shoulder_pan_joint','wrist_1_joint','wrist_2_joint','wrist_3_joint'],,,-0.190947503,-0.270343141,-0.218167607,-0.183133201,0.22111094,5.96E-05,,-0.620740652,-0.888300776,-0.711266518,-0.591563404,0.717695117,0,,,-4.215401649,-9.965690613,0.026305195,-0.650748789,0.488311321,-0.013606243
2021/12/15/17:03:31.933194,1147585,1639584211,932897352,,,'elbow_joint','shoulder_lift_joint','shoulder_pan_joint','wrist_1_joint','wrist_2_joint','wrist_3_joint'],,,-0.195983589,-0.277419166,-0.223888222,-0.187768297,0.226826042,0.000107527,,-0.615606725,-0.870895386,-0.705256939,-0.580903172,0.708781183,0,,,-3.931152105,-9.904977798,0.238486156,-0.697905898,0.528007507,-0.009416699
2021/12/15/17:03:31.941013,1147586,1639584211,940933435,,,'elbow_joint','shoulder_lift_joint','shoulder_pan_joint','wrist_1_joint','wrist_2_joint','wrist_3_joint'],,,-0.200969607,-0.284398035,-0.229523961,-0.192394571,0.23260358,0.000119448,,-0.606653154,-0.856595457,-0.697252631,-0.576979756,0.702044427,0,,,-3.661153793,-9.469700813,0.721913695,-0.6513201,0.430532157,-0.010426097
2021/12/15/17:03:31.949391,1147587,1639584211,948801007,,,'elbow_joint','shoulder_lift_joint','shoulder_pan_joint','wrist_1_joint','wrist_2_joint','wrist_3_joint'],,,-0.205724463,-0.291318969,-0.235102002,-0.197018341,0.238017127,5.96E-05,,-0.596534967,-0.843872368,-0.687969685,-0.5687415,0.684679985,0,,,-3.646591187,-9.069534302,0.907812893,-0.620208442,0.520955443,-0.009031452
2021/12/15/17:03:31.959353,1147588,1639584211,958793016,,,'elbow_joint','shoulder_lift_joint','shoulder_pan_joint','wrist_1_joint','wrist_2_joint','wrist_3_joint'],,,-0.211659178,-0.299625472,-0.241873089,-0.202689843,0.244775772,9.56E-05,,-0.584557116,-0.829514027,-0.67199403,-0.562312126,0.675621092,0,,,-3.470428228,-8.513061523,1.012882113,-0.629339516,0.560213566,-0.010069162
2021/12/15/17:03:31.967128,1147589,1639584211,966792960,,,'elbow_joint','shoulder_lift_joint','shoulder_pan_joint','wrist_1_joint','wrist_2_joint','wrist_3_joint'],,,-0.216328651,-0.306240277,-0.247162644,-0.207157926,0.250181019,9.56E-05,,-0.574964106,-0.813456595,-0.662195027,-0.553459048,0.669275165,0,,,-3.435720205,-8.575773239,1.205598354,-0.611916482,0.553330064,0.003721874
2021/12/15/17:03:31.975528,1147590,1639584211,974932278,,,'elbow_joint','shoulder_lift_joint','shoulder_pan_joint','wrist_1_joint','wrist_2_joint','wrist_3_joint'],,,-0.220799699,-0.312712507,-0.252451722,-0.211518959,0.255559415,4.77E-05,,-0.5682953,-0.805435002,-0.652178824,-0.550198019,0.67191565,0,,,-3.474703074,-8.402368546,1.051561594,-0.598287046,0.459989667,-0.004749745
2021/12/15/17:03:31.983324,1147591,1639584211,982792222,,,'elbow_joint','shoulder_lift_joint','shoulder_pan_joint','wrist_1_joint','wrist_2_joint','wrist_3_joint'],,,-0.225270823,-0.319038348,-0.257525746,-0.215841965,0.26078552,7.15E-05,,-0.559956253,-0.788131416,-0.640989304,-0.539933264,0.65666616,0,,,-3.946748018,-9.66450119,0.508867085,-0.741350055,0.632075787,-0.006703153
2021/12/15/17:03:31.991094,1147592,1639584211,990795613,,,'elbow_joint','shoulder_lift_joint','shoulder_pan_joint','wrist_1_joint','wrist_2_joint','wrist_3_joint'],,,-0.229776278,-0.325249271,-0.262588803,-0.219915704,0.265883505,7.15E-05,,-0.554496229,-0.784244597,-0.634063959,-0.536591351,0.651268005,0,,,-4.014796257,-9.694490433,0.266322285,-0.762882411,0.579762876,0.005282696
2021/12/15/17:03:31.998865,1147593,1639584211,998797484,,,'elbow_joint','shoulder_lift_joint','shoulder_pan_joint','wrist_1_joint','wrist_2_joint','wrist_3_joint'],,,-0.234090701,-0.331408457,-0.267532651,-0.224072174,0.270906299,5.96E-05,,-0.548679709,-0.773750365,-0.625103891,-0.531747043,0.643490314,0,,,-4.410717487,-10.32173634,-0.111189477,-0.901818871,0.714025438,0.004734706
2021/12/15/17:03:32.009444,1147594,1639584212,8793973,,,'elbow_joint','shoulder_lift_joint','shoulder_pan_joint','wrist_1_joint','wrist_2_joint','wrist_3_joint'],,,-0.239473775,-0.339007334,-0.273660008,-0.22930129,0.277132362,5.96E-05,,-0.544261158,-0.761503518,-0.618604958,-0.531025827,0.639787972,0,,,-4.745473862,-11.2871151,-0.793683112,-1.045938611,0.810905099,0.011669058
2021/12/15/17:03:32.017209,1147595,1639584212,16792807,,,'elbow_joint','shoulder_lift_joint','shoulder_pan_joint','wrist_1_joint','wrist_2_joint','wrist_3_joint'],,,-0.243733093,-0.345063404,-0.278571908,-0.233617143,0.282232702,7.15E-05,,-0.550587952,-0.76333487,-0.621231318,-0.538381755,0.642226398,0,,,-4.784046173,-11.52036858,-1.066154718,-1.035655737,0.90112102,0.019530777
2021/12/15/17:03:32.025574,1147596,1639584212,24986011,,,'elbow_joint','shoulder_lift_joint','shoulder_pan_joint','wrist_1_joint','wrist_2_joint','wrist_3_joint'],,,-0.248070747,-0.351056532,-0.283479993,-0.237891154,0.287341714,7.15E-05,,-0.54720217,-0.761717558,-0.617471159,-0.536463201,0.63999778,0,,,-4.964113235,-12.3253088,-1.484014153,-1.028524041,0.943747401,0.012144409
2021/12/15/17:03:32.033232,1147597,1639584212,32880369,,,'elbow_joint','shoulder_lift_joint','shoulder_pan_joint','wrist_1_joint','wrist_2_joint','wrist_3_joint'],,,-0.252424926,-0.357107953,-0.288332287,-0.242233829,0.292505443,9.56E-05,,-0.547908545,-0.773302257,-0.621063709,-0.533801675,0.650607586,0,,,-5.340553761,-12.57980919,-1.829593658,-1.147539616,0.913615346,0.007657662
2021/12/15/17:03:32.041042,1147598,1639584212,40861781,,,'elbow_joint','shoulder_lift_joint','shoulder_pan_joint','wrist_1_joint','wrist_2_joint','wrist_3_joint'],,,-0.256780982,-0.363210515,-0.29325134,-0.246504144,0.297687232,7.15E-05,,-0.551460862,-0.769982517,-0.620542526,-0.537366569,0.647337377,0,,,-5.312211514,-12.64638138,-1.874503016,-1.059022903,0.875120163,0.012663033
2021/12/15/17:03:32.049408,1147599,1639584212,48795146,,,'elbow_joint','shoulder_lift_joint','shoulder_pan_joint','wrist_1_joint','wrist_2_joint','wrist_3_joint'],,,-0.261241555,-0.369385676,-0.298250024,-0.250678734,0.302808255,9.56E-05,,-0.55024755,-0.770046413,-0.624022126,-0.536052942,0.641463935,0,,,-5.311671734,-12.89495659,-1.883116603,-1.094381809,0.969200671,0.010420561
2021/12/15/17:03:32.059330,1147600,1639584212,58883495,,,'elbow_joint','shoulder_lift_joint','shoulder_pan_joint','wrist_1_joint','wrist_2_joint','wrist_3_joint'],,,-0.266806036,-0.377182083,-0.304594342,-0.256051854,0.309215963,0.000119448,,-0.553313553,-0.772755444,-0.62970233,-0.532486796,0.641665339,0,,,-5.220266819,-12.63549137,-1.610314012,-1.176262498,1.00138545,0.016889181
2021/12/15/17:03:32.067067,1147601,1639584212,66787686,,,'elbow_joint','shoulder_lift_joint','shoulder_pan_joint','wrist_1_joint','wrist_2_joint','wrist_3_joint'],,,-0.271291912,-0.383504466,-0.3097356,-0.260349945,0.31442377,0.000119448,,-0.555964649,-0.780818224,-0.634527624,-0.540587544,0.647995293,-1.01E-09,,,-5.017947674,-12.50729847,-1.329684258,-1.143370748,0.893856823,0.01656346
2021/12/15/17:03:32.075487,1147602,1639584212,74934164,,,'elbow_joint','shoulder_lift_joint','shoulder_pan_joint','wrist_1_joint','wrist_2_joint','wrist_3_joint'],,,-0.27575472,-0.389829473,-0.3149007,-0.264740066,0.319672376,0.000107527,,-0.559437811,-0.795007825,-0.637948811,-0.538754404,0.651998162,-1.84E-14,,,-4.747607708,-11.35197735,-0.988437533,-1.089375019,0.874661982,0.025753662
2021/12/15/17:03:32.083293,1147603,1639584212,82798193,,,'elbow_joint','shoulder_lift_joint','shoulder_pan_joint','wrist_1_joint','wrist_2_joint','wrist_3_joint'],,,-0.280231953,-0.396160201,-0.320051972,-0.269056277,0.324932098,0.000119448,,-0.561122417,-0.797297418,-0.641906917,-0.534641743,0.656272531,-3.34E-19,,,-4.718865395,-11.71469879,-1.042641759,-1.020455718,0.794756532,0.030120067
2021/12/15/17:03:32.091043,1147604,1639584212,90852623,,,'elbow_joint','shoulder_lift_joint','shoulder_pan_joint','wrist_1_joint','wrist_2_joint','wrist_3_joint'],,,-0.284713626,-0.402612762,-0.325253312,-0.273325281,0.330185384,9.56E-05,,-0.557113469,-0.796242118,-0.645107448,-0.533207297,0.646971285,-6.07E-24,,,-4.696597099,-11.1801157,-0.693830967,-1.014984846,0.816574931,0.034862369
2021/12/15/17:03:32.099377,1147605,1639584212,98804099,,,'elbow_joint','shoulder_lift_joint','shoulder_pan_joint','wrist_1_joint','wrist_2_joint','wrist_3_joint'],,,-0.289210439,-0.408992247,-0.330404107,-0.277547197,0.335273355,5.96E-05,,-0.558369517,-0.796315551,-0.645915806,-0.531900525,0.645707667,-1.10E-28,,,-4.644962788,-11.18423557,-0.449882299,-1.057007909,0.77608496,0.031160925
2021/12/15/17:03:32.109461,1147606,1639584212,108791791,,,'elbow_joint','shoulder_lift_joint','shoulder_pan_joint','wrist_1_joint','wrist_2_joint','wrist_3_joint'],,,-0.294828653,-0.416979269,-0.33686382,-0.282753901,0.341668785,5.96E-05,,-0.556692302,-0.797830045,-0.648352146,-0.530459225,0.640336752,-1.31E-34,,,-4.436550617,-10.76943493,-0.167123467,-1.048096895,0.861282349,0.040575858
2021/12/15/17:03:32.117143,1147607,1639584212,116787007,,,'elbow_joint','shoulder_lift_joint','shoulder_pan_joint','wrist_1_joint','wrist_2_joint','wrist_3_joint'],,,-0.299252093,-0.42325385,-0.342048947,-0.287002282,0.346845031,0.000131607,,-0.558009744,-0.798305571,-0.642564058,-0.534290552,0.645482123,-2.38E-39,,,-4.416203976,-10.54417896,-0.140171528,-1.091829419,0.822978675,0.037509385
2021/12/15/17:03:32.125558,1147608,1639584212,124995263,,,'elbow_joint','shoulder_lift_joint','shoulder_pan_joint','wrist_1_joint','wrist_2_joint','wrist_3_joint'],,,-0.303665131,-0.429664926,-0.347174946,-0.291282133,0.352064848,9.56E-05,,-0.558696389,-0.79039228,-0.640381813,-0.529541135,0.642825365,-4.34E-44,,,-4.391856194,-10.55019379,-0.345712006,-1.165229201,0.87436527,0.056486465
2021/12/15/17:03:32.133291,1147609,1639584212,132878823,,,'elbow_joint','shoulder_lift_joint','shoulder_pan_joint','wrist_1_joint','wrist_2_joint','wrist_3_joint'],,,-0.308146149,-0.436076836,-0.352290455,-0.295627431,0.357262999,7.15E-05,,-0.558845639,-0.794597507,-0.641448379,-0.537830591,0.645923555,0,,,-4.480042934,-10.92034149,-0.392507732,-1.079275727,0.951159358,0.038542904
2021/12/15/17:03:32.141079,1147610,1639584212,140802209,,,'elbow_joint','shoulder_lift_joint','shoulder_pan_joint','wrist_1_joint','wrist_2_joint','wrist_3_joint'],,,-0.31259501,-0.442441778,-0.35740215,-0.299925284,0.362470597,8.37E-05,,-0.560346842,-0.788595438,-0.640452027,-0.539563596,0.644302309,0,,,-4.364320755,-10.62968063,-0.229613304,-1.027175903,0.807904959,0.056624483
2021/12/15/17:03:32.149388,1147611,1639584212,148800138,,,'elbow_joint','shoulder_lift_joint','shoulder_pan_joint','wrist_1_joint','wrist_2_joint','wrist_3_joint'],,,-0.317053586,-0.448709921,-0.362527672,-0.304203705,0.367521971,5.96E-05,,-0.555458069,-0.786078572,-0.634789705,-0.525819063,0.639833748,0,,,-4.302454948,-10.45018196,-0.289779931,-1.097983956,0.851171494,0.058327012
2021/12/15/17:03:32.159477,1147612,1639584212,158918846,,,'elbow_joint','shoulder_lift_joint','shoulder_pan_joint','wrist_1_joint','wrist_2_joint','wrist_3_joint'],,,-0.32277903,-0.456532673,-0.36884195,-0.309475617,0.373879969,5.96E-05,,-0.551953852,-0.787336051,-0.635201812,-0.531568408,0.639038563,0,,,-4.422645092,-10.25950527,-0.428128868,-1.057072878,0.915141582,0.064967014
2021/12/15/17:03:32.167236,1147613,1639584212,166786195,,,'elbow_joint','shoulder_lift_joint','shoulder_pan_joint','wrist_1_joint','wrist_2_joint','wrist_3_joint'],,,-0.327253014,-0.462837533,-0.373917405,-0.313726143,0.378968209,8.37E-05,,-0.5539608,-0.782921374,-0.629625738,-0.535238087,0.643213689,0,,,-4.444944382,-10.83537674,-0.698237836,-1.064973116,0.966632783,0.056169089
2021/12/15/17:03:32.175550,1147614,1639584212,174891986,,,'elbow_joint','shoulder_lift_joint','shoulder_pan_joint','wrist_1_joint','wrist_2_joint','wrist_3_joint'],,,-0.331674308,-0.469153838,-0.378969018,-0.317958431,0.384147674,8.37E-05,,-0.552035868,-0.785662889,-0.629218221,-0.526559949,0.638036013,0,,,-4.287382603,-10.42240715,-0.63657403,-1.177382708,0.963856339,0.072734855
2021/12/15/17:03:32.183313,1147615,1639584212,182796417,,,'elbow_joint','shoulder_lift_joint','shoulder_pan_joint','wrist_1_joint','wrist_2_joint','wrist_3_joint'],,,-0.336074591,-0.475538568,-0.383946721,-0.322150425,0.389308244,7.15E-05,,-0.553792775,-0.783608317,-0.628085017,-0.534228861,0.645205677,0,,,-4.430855274,-10.68828297,-0.74220264,-1.14021945,0.896867931,0.055070367
2021/12/15/17:03:32.191082,1147616,1639584212,190793681,,,'elbow_joint','shoulder_lift_joint','shoulder_pan_joint','wrist_1_joint','wrist_2_joint','wrist_3_joint'],,,-0.340534389,-0.481787876,-0.388975445,-0.326494889,0.394463867,9.56E-05,,-0.551638484,-0.783589065,-0.629106045,-0.532738268,0.642164409,0,,,-4.248188019,-10.25320244,-0.846512437,-1.110239625,0.946144581,0.073787354
2021/12/15/17:03:32.199385,1147617,1639584212,198805883,,,'elbow_joint','shoulder_lift_joint','shoulder_pan_joint','wrist_1_joint','wrist_2_joint','wrist_3_joint'],,,-0.344950765,-0.487988309,-0.394038026,-0.330806331,0.399491072,0.000155449,,-0.553362668,-0.786316097,-0.628484726,-0.541155756,0.646054268,0,,,-4.075498581,-10.16762066,-0.923286557,-0.94187367,0.879839778,0.071235336
2021/12/15/17:03:32.209095,1147618,1639584212,208793098,,,'elbow_joint','shoulder_lift_joint','shoulder_pan_joint','wrist_1_joint','wrist_2_joint','wrist_3_joint'],,,-0.350452662,-0.495777206,-0.400287453,-0.336129741,0.405815363,9.56E-05,,-0.550839365,-0.779379368,-0.629843712,-0.529464483,0.636744797,0,,,-4.165208817,-10.42422962,-0.927800715,-1.109650016,1.01945138,0.070704587
2021/12/15/17:03:32.217394,1147619,1639584212,216789860,,,'elbow_joint','shoulder_lift_joint','shoulder_pan_joint','wrist_1_joint','wrist_2_joint','wrist_3_joint'],,,-0.354856938,-0.502013878,-0.405291382,-0.340320305,0.410963595,7.16E-05,,-0.551220298,-0.776604235,-0.628893793,-0.532303393,0.643903673,0.000238318,,,-4.372437954,-10.53682232,-0.937110603,-1.112175584,0.95596379,0.087813824
2021/12/15/17:03:32.225123,1147620,1639584212,224874588,,,'elbow_joint','shoulder_lift_joint','shoulder_pan_joint','wrist_1_joint','wrist_2_joint','wrist_3_joint'],,,-0.359271377,-0.508249955,-0.410294835,-0.34452136,0.416155905,7.16E-05,,-0.550695658,-0.77594173,-0.63008517,-0.535159409,0.644813776,0.000257319,,,-4.349710464,-10.67785549,-1.163500905,-1.059322238,0.994111717,0.069696687
2021/12/15/17:03:32.233405,1147621,1639584212,232887075,,,'elbow_joint','shoulder_lift_joint','shoulder_pan_joint','wrist_1_joint','wrist_2_joint','wrist_3_joint'],,,-0.363710284,-0.514441685,-0.415374104,-0.348721461,0.421387613,8.38E-05,,-0.550958633,-0.786987901,-0.634572089,-0.532531142,0.647659123,0.00025425,,,-4.369404793,-10.34324741,-0.954699099,-1.193211555,0.945296705,0.086813599
2021/12/15/17:03:32.241210,1147622,1639584212,240821337,,,'elbow_joint','shoulder_lift_joint','shoulder_pan_joint','wrist_1_joint','wrist_2_joint','wrist_3_joint'],,,-0.368068248,-0.520688609,-0.420448605,-0.352992134,0.426528394,0.000119539,,-0.555410206,-0.786946535,-0.63350004,-0.528093517,0.642029285,0.000249379,,,-4.324695587,-10.37781525,-0.965125322,-1.275209785,1.026282549,0.082811177
2021/12/15/17:03:32.249010,1147623,1639584212,248815129,,,'elbow_joint','shoulder_lift_joint','shoulder_pan_joint','wrist_1_joint','wrist_2_joint','wrist_3_joint'],,,-0.372552335,-0.527008252,-0.425596539,-0.357266502,0.431676805,8.38E-05,,-0.555768371,-0.784929395,-0.635895908,-0.534155965,0.642793834,0.000272008,,,-4.028862953,-10.12711716,-0.70759356,-1.143272281,0.905739784,0.059040565
2021/12/15/17:03:32.259572,1147624,1639584212,258924901,,,'elbow_joint','shoulder_lift_joint','shoulder_pan_joint','wrist_1_joint','wrist_2_joint','wrist_3_joint'],,,-0.378069609,-0.53484507,-0.431956116,-0.362621145,0.438102484,0.000107618,,-0.552606702,-0.778713167,-0.637414336,-0.533091307,0.64677763,0.000250752,,,-4.200524807,-10.39810181,-0.683808804,-1.160763741,0.935532153,0.069778502
2021/12/15/17:03:32.267374,1147625,1639584212,266795133,,,'elbow_joint','shoulder_lift_joint','shoulder_pan_joint','wrist_1_joint','wrist_2_joint','wrist_3_joint'],,,-0.382472962,-0.541179971,-0.437106911,-0.36689444,0.443296582,0.000131703,,-0.552529275,-0.78170079,-0.638248563,-0.530596793,0.647371471,0.000263938,,,-4.231304169,-10.40781307,-0.651152492,-1.269237995,0.939479828,0.08215636
2021/12/15/17:03:32.275117,1147626,1639584212,274805604,,,'elbow_joint','shoulder_lift_joint','shoulder_pan_joint','wrist_1_joint','wrist_2_joint','wrist_3_joint'],,,-0.387045383,-0.547493891,-0.442210499,-0.371219711,0.448526144,0.000107616,,-0.554647267,-0.785435438,-0.639385283,-0.53894937,0.646746874,0.000243764,,,-3.902935028,-9.821231842,-0.420551509,-1.119320035,0.93811661,0.07438042
2021/12/15/17:03:32.282894,1147627,1639584212,282800832,,,'elbow_joint','shoulder_lift_joint','shoulder_pan_joint','wrist_1_joint','wrist_2_joint','wrist_3_joint'],,,-0.391520262,-0.553786115,-0.447315041,-0.375518398,0.453789711,8.38E-05,,-0.555883408,-0.786352694,-0.639637887,-0.540112913,0.646053374,0.000233991,,,-4.122092724,-9.51192379,-0.262009293,-1.043153286,0.930793166,0.066367209
2021/12/15/17:03:32.291203,1147628,1639584212,290792064,,,'elbow_joint','shoulder_lift_joint','shoulder_pan_joint','wrist_1_joint','wrist_2_joint','wrist_3_joint'],,,-0.395899534,-0.560040311,-0.452394787,-0.379751996,0.458934575,7.16E-05,,-0.555600703,-0.781810939,-0.640615344,-0.529576421,0.643566012,0.000232476,,,-3.891910791,-9.922472,-0.328422099,-1.137187719,0.878312171,0.063711695
2021/12/15/17:03:32.299486,1147629,1639584212,298881291,,,'elbow_joint','shoulder_lift_joint','shoulder_pan_joint','wrist_1_joint','wrist_2_joint','wrist_3_joint'],,,-0.400327355,-0.566418604,-0.45752031,-0.384016828,0.464030951,0.0001436,,-0.557215929,-0.787120402,-0.638270676,-0.53252238,0.645195484,0.000198576,,,-3.746742725,-9.427989006,-0.273493826,-1.124708891,0.873395264,0.078646801
2021/12/15/17:03:32.308923,1147630,1639584212,308802881,,,'elbow_joint','shoulder_lift_joint','shoulder_pan_joint','wrist_1_joint','wrist_2_joint','wrist_3_joint'],,,-0.40585053,-0.574293391,-0.463843171,-0.389359788,0.470433325,9.57E-05,,-0.555758655,-0.786632717,-0.639570117,-0.533545375,0.643362045,0.000195687,,,-3.71454215,-9.328629494,-0.248328775,-1.120311022,0.917982876,0.07699731
2021/12/15/17:03:32.317335,1147631,1639584212,316786950,,,'elbow_joint','shoulder_lift_joint','shoulder_pan_joint','wrist_1_joint','wrist_2_joint','wrist_3_joint'],,,-0.410286844,-0.58059539,-0.468957249,-0.39370449,0.475614607,9.57E-05,,-0.557271063,-0.785336316,-0.635905027,-0.530878603,0.64465785,0.000174059,,,-3.745969296,-9.476892471,-0.354713231,-1.095754862,0.935363114,0.07827726
2021/12/15/17:03:32.325171,1147632,1639584212,324878342,,,'elbow_joint','shoulder_lift_joint','shoulder_pan_joint','wrist_1_joint','wrist_2_joint','wrist_3_joint'],,,-0.414744407,-0.586886124,-0.474047009,-0.397920327,0.480756611,0.000131672,,-0.552782059,-0.781350911,-0.633047402,-0.534086049,0.640142918,0.000179027,,,-3.873481035,-9.408489227,-0.41360563,-1.071531415,0.921968341,0.077905431
2021/12/15/17:03:32.332973,1147633,1639584212,332872737,,,'elbow_joint','shoulder_lift_joint','shoulder_pan_joint','wrist_1_joint','wrist_2_joint','wrist_3_joint'],,,-0.419204921,-0.593142168,-0.479112927,-0.40213366,0.485866189,0.000131666,,-0.555182517,-0.782696724,-0.630753756,-0.532647252,0.643488228,0.000162892,,,-3.99044466,-9.69073391,-0.736014128,-1.13563025,0.929023921,0.058978643
2021/12/15/17:03:32.341357,1147634,1639584212,340841995,,,'elbow_joint','shoulder_lift_joint','shoulder_pan_joint','wrist_1_joint','wrist_2_joint','wrist_3_joint'],,,-0.423629344,-0.599430816,-0.484170262,-0.406383829,0.490998864,9.57E-05,,-0.554959059,-0.779524267,-0.631688952,-0.534248888,0.644500434,0.000149393,,,-3.69456172,-9.734867096,-0.469682008,-1.068236589,0.899741769,0.0779154
2021/12/15/17:03:32.349079,1147635,1639584212,348810659,,,'elbow_joint','shoulder_lift_joint','shoulder_pan_joint','wrist_1_joint','wrist_2_joint','wrist_3_joint'],,,-0.428016901,-0.605703132,-0.489239041,-0.410560088,0.496073484,8.37E-05,,-0.552126288,-0.779608548,-0.630148709,-0.529383838,0.640402794,0.000137943,,,-3.812483072,-9.558504105,-0.696658134,-1.13373065,0.972567201,0.086794063
2021/12/15/17:03:32.359082,1147636,1639584212,358795815,,,'elbow_joint','shoulder_lift_joint','shoulder_pan_joint','wrist_1_joint','wrist_2_joint','wrist_3_joint'],,,-0.433556587,-0.613535361,-0.495562855,-0.415855007,0.502448857,8.37E-05,,-0.552355528,-0.784079432,-0.630304754,-0.527840018,0.640186131,0.000125884,,,-3.745693684,-9.107722282,-0.800889969,-1.242033243,1.040947318,0.078083098
2021/12/15/17:03:32.367444,1147637,1639584212,366927099,,,'elbow_joint','shoulder_lift_joint','shoulder_pan_joint','wrist_1_joint','wrist_2_joint','wrist_3_joint'],,,-0.438043952,-0.61978306,-0.500603978,-0.42021461,0.507650971,0.00011949,,-0.557625175,-0.786190629,-0.632108808,-0.537579954,0.646570325,0.000117656,,,-3.42632699,-9.067551613,-0.72637558,-1.087518334,0.930670142,0.073527038
2021/12/15/17:03:32.375196,1147638,1639584212,374794960,,,'elbow_joint','shoulder_lift_joint','shoulder_pan_joint','wrist_1_joint','wrist_2_joint','wrist_3_joint'],,,-0.442454398,-0.626089172,-0.505668465,-0.424523787,0.512802422,0.000131647,,-0.552848756,-0.781949699,-0.629140556,-0.537100852,0.64494431,0.000110437,,,-3.806775808,-9.473686218,-0.840646505,-1.11071384,0.960139394,0.109617963
2021/12/15/17:03:32.382957,1147639,1639584212,382787275,,,'elbow_joint','shoulder_lift_joint','shoulder_pan_joint','wrist_1_joint','wrist_2_joint','wrist_3_joint'],,,-0.446913838,-0.632346646,-0.510721985,-0.428737597,0.517977357,7.16E-05,,-0.550435662,-0.777712822,-0.630739868,-0.525303364,0.644453764,0.000104053,,,-3.818516254,-9.51981926,-0.69397223,-1.240500689,0.940403104,0.081656054
2021/12/15/17:03:32.391317,1147640,1639584212,390856672,,,'elbow_joint','shoulder_lift_joint','shoulder_pan_joint','wrist_1_joint','wrist_2_joint','wrist_3_joint'],,,-0.451422155,-0.638571457,-0.515775983,-0.433008627,0.523103356,0.000131637,,-0.550784886,-0.782379985,-0.631621122,-0.534009218,0.64018333,8.12E-05,,,-3.684461117,-9.025157928,-0.697801173,-1.092102647,1.028183937,0.081102535
2021/12/15/17:03:32.399086,1147641,1639584212,398790448,,,'elbow_joint','shoulder_lift_joint','shoulder_pan_joint','wrist_1_joint','wrist_2_joint','wrist_3_joint'],,,-0.455859661,-0.644817368,-0.520866696,-0.437300996,0.52819711,8.37E-05,,-0.553978741,-0.781863213,-0.634108722,-0.537609458,0.644872069,7.58E-05,,,-3.482863903,-9.173677444,-0.537028968,-1.02675736,0.916222095,0.085476369
2021/12/15/17:03:32.409091,1147642,1639584212,408792484,,,'elbow_joint','shoulder_lift_joint','shoulder_pan_joint','wrist_1_joint','wrist_2_joint','wrist_3_joint'],,,-0.461377829,-0.652699725,-0.527164761,-0.442559676,0.534619153,9.56E-05,,-0.555215836,-0.786409736,-0.635597825,-0.525980413,0.642240822,6.99E-05,,,-3.329335213,-8.734077454,-0.452192307,-1.175449133,0.958795369,0.090910077
2021/12/15/17:03:32.417619,1147643,1639584212,416864766,,,'elbow_joint','shoulder_lift_joint','shoulder_pan_joint','wrist_1_joint','wrist_2_joint','wrist_3_joint'],,,-0.465788186,-0.65904154,-0.532348935,-0.446818666,0.539807558,9.56E-05,,-0.552992404,-0.784308553,-0.634803832,-0.535649061,0.645234346,7.89E-05,,,-3.387461185,-8.642392159,-0.579495788,-1.090527058,0.899947107,0.079424836
2021/12/15/17:03:32.425426,1147644,1639584212,424888571,,,'elbow_joint','shoulder_lift_joint','shoulder_pan_joint','wrist_1_joint','wrist_2_joint','wrist_3_joint'],,,-0.470185459,-0.665290193,-0.537439171,-0.451183276,0.544995487,9.56E-05,,-0.554793656,-0.785468817,-0.63670671,-0.538077414,0.645347655,8.70E-05,,,-3.311583281,-8.836047173,-0.522414565,-1.048051476,0.917111158,0.093503937
2021/12/15/17:03:32.433193,1147645,1639584212,432878005,,,'elbow_joint','shoulder_lift_joint','shoulder_pan_joint','wrist_1_joint','wrist_2_joint','wrist_3_joint'],,,-0.474640667,-0.671546356,-0.542476479,-0.455460147,0.550228417,0.000119478,,-0.553766847,-0.788405836,-0.636507392,-0.530451834,0.637929261,8.25E-05,,,-3.421230316,-8.589500427,-0.590946674,-1.033704877,1.025784254,0.087073572
2021/12/15/17:03:32.441489,1147646,1639584212,440914292,,,'elbow_joint','shoulder_lift_joint','shoulder_pan_joint','wrist_1_joint','wrist_2_joint','wrist_3_joint'],,,-0.479110986,-0.677835421,-0.547569577,-0.459764676,0.555371463,0.00011948,,-0.556048572,-0.789765179,-0.637825906,-0.53384304,0.647902668,8.94E-05,,,-3.228156567,-8.233427048,-0.58169359,-1.040451765,0.835161626,0.091599084
2021/12/15/17:03:32.449250,1147647,1639584212,448798708,,,'elbow_joint','shoulder_lift_joint','shoulder_pan_joint','wrist_1_joint','wrist_2_joint','wrist_3_joint'],,,-0.483578473,-0.684169189,-0.552667443,-0.464016275,0.560471416,0.000107558,,-0.554080606,-0.781042874,-0.63806659,-0.526632726,0.639486849,8.53E-05,,,-3.375167131,-8.801196098,-0.410972983,-1.108921647,0.942610323,0.100394882
2021/12/15/17:03:32.459243,1147648,1639584212,458794555,,,'elbow_joint','shoulder_lift_joint','shoulder_pan_joint','wrist_1_joint','wrist_2_joint','wrist_3_joint'],,,-0.489165395,-0.692054526,-0.55896217,-0.469255523,0.566830575,0.000143571,,-0.555269957,-0.779085815,-0.634554744,-0.527017593,0.642460883,0.000119356,,,-3.178057194,-8.520127296,-0.494111598,-1.023911715,0.911468685,0.088635534
2021/12/15/17:03:32.467052,1147649,1639584212,466792611,,,'elbow_joint','shoulder_lift_joint','shoulder_pan_joint','wrist_1_joint','wrist_2_joint','wrist_3_joint'],,,-0.493503094,-0.69835736,-0.564091984,-0.473466114,0.57203424,0.000143571,,-0.554370105,-0.784463167,-0.634557664,-0.533341348,0.644365132,0.000118598,,,-2.942409992,-8.431649208,-0.557889044,-1.053090096,0.890444458,0.094412595
2021/12/15/17:03:32.475373,1147650,1639584212,474800576,,,'elbow_joint','shoulder_lift_joint','shoulder_pan_joint','wrist_1_joint','wrist_2_joint','wrist_3_joint'],,,-0.497980505,-0.704574005,-0.569187466,-0.477718429,0.577139974,0.00013165,,-0.556021452,-0.786714137,-0.635879695,-0.526756883,0.642594516,0.000118233,,,-3.043762684,-7.999003887,-0.485177219,-1.140158176,0.875819743,0.090793617
2021/12/15/17:03:32.483125,1147651,1639584212,482799978,,,'elbow_joint','shoulder_lift_joint','shoulder_pan_joint','wrist_1_joint','wrist_2_joint','wrist_3_joint'],,,-0.502366126,-0.710849718,-0.574233834,-0.482024507,0.582330465,0.000119487,,-0.553335428,-0.783756912,-0.632448196,-0.534088075,0.642938018,0.000108712,,,-3.159256935,-8.057891846,-0.591421902,-1.00890708,0.898214161,0.083565079
2021/12/15/17:03:32.491391,1147652,1639584212,490874734,,,'elbow_joint','shoulder_lift_joint','shoulder_pan_joint','wrist_1_joint','wrist_2_joint','wrist_3_joint'],,,-0.506860137,-0.717101173,-0.579316918,-0.486352877,0.587402701,9.56E-05,,-0.555846393,-0.780850351,-0.634335041,-0.534225225,0.644535482,0.000117373,,,-2.866592646,-8.210344315,-0.512407541,-0.978242159,0.831857324,0.07850638
2021/12/15/17:03:32.499234,1147653,1639584212,498801295,,,'elbow_joint','shoulder_lift_joint','shoulder_pan_joint','wrist_1_joint','wrist_2_joint','wrist_3_joint'],,,-0.511339903,-0.72340037,-0.584399048,-0.490545945,0.592553318,9.56E-05,,-0.554643691,-0.780616999,-0.632974386,-0.52395308,0.637606919,0.000109237,,,-2.912950516,-8.172011375,-0.673831344,-1.075712681,0.952286243,0.091300659
2021/12/15/17:03:32.509154,1147654,1639584212,508797201,,,'elbow_joint','shoulder_lift_joint','shoulder_pan_joint','wrist_1_joint','wrist_2_joint','wrist_3_joint'],,,-0.51696229,-0.731214718,-0.590671364,-0.495884256,0.598968029,0.000107568,,-0.553433657,-0.78063041,-0.634707749,-0.532354236,0.636490941,0.000114637,,,-2.997513533,-8.307533264,-0.517350852,-1.032759428,1.004292965,0.084159963
2021/12/15/17:03:32.516920,1147655,1639584212,516796160,,,'elbow_joint','shoulder_lift_joint','shoulder_pan_joint','wrist_1_joint','wrist_2_joint','wrist_3_joint'],,,-0.521347642,-0.737439052,-0.595802132,-0.500107722,0.604248524,0.000155495,,-0.555499315,-0.784093797,-0.633664429,-0.537853837,0.647791207,0.000125907,,,-2.707812071,-7.791758537,-0.609256506,-0.945960939,0.817049026,0.084158547
2021/12/15/17:03:32.525253,1147656,1639584212,524909969,,,'elbow_joint','shoulder_lift_joint','shoulder_pan_joint','wrist_1_joint','wrist_2_joint','wrist_3_joint'],,,-0.525658607,-0.743700103,-0.600834672,-0.504348592,0.609363556,0.000119494,,-0.551579535,-0.786154926,-0.631850481,-0.52862376,0.641547024,0.000128391,,,-2.860281706,-7.542316914,-0.78156966,-0.97648108,0.881746292,0.099338382
2021/12/15/17:03:32.533035,1147657,1639584212,532918813,,,'elbow_joint','shoulder_lift_joint','shoulder_pan_joint','wrist_1_joint','wrist_2_joint','wrist_3_joint'],,,-0.530144095,-0.750027196,-0.60585529,-0.508583502,0.614507079,0.000107568,,-0.554365575,-0.784137785,-0.632608891,-0.531459332,0.645219564,0.000115238,,,-2.812549114,-8.093010902,-0.821165323,-1.058614016,0.905611336,0.100620016
2021/12/15/17:03:32.541357,1147658,1639584212,540907107,,,'elbow_joint','shoulder_lift_joint','shoulder_pan_joint','wrist_1_joint','wrist_2_joint','wrist_3_joint'],,,-0.534566343,-0.756347076,-0.6109646,-0.512971596,0.619593143,0.000143573,,-0.555613279,-0.783943236,-0.634524226,-0.530441642,0.63863802,0.000125435,,,-2.873206377,-8.02610302,-0.752667427,-1.022042155,0.939667702,0.089250974
2021/12/15/17:03:32.549103,1147659,1639584212,548799668,,,'elbow_joint','shoulder_lift_joint','shoulder_pan_joint','wrist_1_joint','wrist_2_joint','wrist_3_joint'],,,-0.53900063,-0.762605445,-0.616059128,-0.517277913,0.624711573,0.000107572,,-0.551704824,-0.781643033,-0.636512816,-0.533605814,0.64134109,0.000124179,,,-2.831305265,-7.737582207,-0.689779043,-0.911815822,0.870815992,0.075904824
2021/12/15/17:03:32.559068,1147660,1639584212,558793165,,,'elbow_joint','shoulder_lift_joint','shoulder_pan_joint','wrist_1_joint','wrist_2_joint','wrist_3_joint'],,,-0.544584692,-0.77043374,-0.622411076,-0.522539572,0.631163955,8.37E-05,,-0.552639067,-0.784960747,-0.632682145,-0.530325413,0.644619048,0.000121037,,,-2.699851274,-7.461539745,-0.758572996,-0.970475197,0.866200089,0.086115859
2021/12/15/17:03:32.567381,1147661,1639584212,566931027,,,'elbow_joint','shoulder_lift_joint','shoulder_pan_joint','wrist_1_joint','wrist_2_joint','wrist_3_joint'],,,-0.549033165,-0.776655809,-0.627491776,-0.526905374,0.636381149,0.00010757,,-0.557356834,-0.787183404,-0.633804917,-0.534757793,0.646870375,0.000120303,,,-2.448611259,-7.161625385,-0.762414217,-0.905878365,0.807942092,0.084970415
